[
    {
        "api": "33-053-02102",
        "well_name": "Basic Game And Fish 34-3",
        "latitude": 48.097836,
        "longitude": -103.645192,
        "status": "Active",
        "well_type": "Oil & Gas",
        "closest_city": "Williston",
        "oil_prod": 518.0,
        "gas_prod": 518.0,
        "stim_volume": 7500.0,
        "stim_proppant": 0.0
    },
    {
        "api": "33-053-02148",
        "well_name": "Corps Of Engineers 31-10",
        "latitude": 48.094925,
        "longitude": -103.656644,
        "status": "Plugged and Abandoned",
        "well_type": "Oil & Gas",
        "closest_city": "Williston",
        "oil_prod": 64.0,
        "gas_prod": 0.0,
        "stim_volume": 7000.0,
        "stim_proppant": 0.0
    },
    {
        "api": "33-053-02556",
        "well_name": "Lewis And Clark 2-4H",
        "latitude": 48.104997,
        "longitude": -103.670242,
        "status": "Active",
        "well_type": "Oil & Gas",
        "closest_city": "Williston",
        "oil_prod": 537.0,
        "gas_prod": 537.0,
        "stim_volume": 12000.0,
        "stim_proppant": 0.0
    },
    {
        "api": "33-053-03413",
        "well_name": "Wade Federal 5300 21-30H",
        "latitude": 48.047147,
        "longitude": -103.6031,
        "status": "Active",
        "well_type": "Oil & Gas",
        "closest_city": "Williston",
        "oil_prod": 63.0,
        "gas_prod": 12.0,
        "stim_volume": 76768.0,
        "stim_proppant": 0.0
    },
    {
        "api": "33-053-05924",
        "well_name": "Chalmers 5301 44-24 2TR",
        "latitude": 48.055866,
        "longitude": -103.604903,
        "status": "Active",
        "well_type": "Oil & Gas",
        "closest_city": "Williston",
        "oil_prod": 275.0,
        "gas_prod": 0.0,
        "stim_volume": 74826.0,
        "stim_proppant": 0.0
    },
    {
        "api": "33-053-03608",
        "well_name": "Foley Federal 5301 43-12H",
        "latitude": 48.08269,
        "longitude": -103.611486,
        "status": "Active",
        "well_type": "Oil & Gas",
        "closest_city": "Williston",
        "oil_prod": 0.0,
        "gas_prod": 0.0,
        "stim_volume": 74475.0,
        "stim_proppant": 0.0
    },
    {
        "api": "33-105-04981",
        "well_name": "Jackman 34-11-3TFH",
        "latitude": 48.343789,
        "longitude": -103.50343,
        "status": "Active",
        "well_type": "Oil & Gas",
        "closest_city": "Springbrook",
        "oil_prod": 777.0,
        "gas_prod": 0.0,
        "stim_volume": 86805.0,
        "stim_proppant": 0.0
    },
    {
        "api": "33-105-00822",
        "well_name": "Marley State 1-36HR",
        "latitude": 48.026388,
        "longitude": -103.995077,
        "status": "Active",
        "well_type": "Oil & Gas",
        "closest_city": "East Fairview",
        "oil_prod": 240.0,
        "gas_prod": 99.0,
        "stim_volume": 1822380.0,
        "stim_proppant": 999800.0
    },
    {
        "api": "33-142-11970",
        "well_name": "Pending Web Scrape",
        "latitude": 0.0,
        "longitude": 0.0,
        "status": "N/A",
        "well_type": "N/A",
        "closest_city": "N/A",
        "oil_prod": 0.0,
        "gas_prod": 0.0,
        "stim_volume": 100130.0,
        "stim_proppant": 0.0
    }
]