[
    {
        "api": "33-053-02102",
        "well_name": "Basic Game And Fish 34-3",
        "latitude": 48.097836,
        "longitude": -103.645192,
        "status": "Active",
        "well_type": "Oil & Gas",
        "closest_city": "Williston",
        "oil_prod": 518.0,
        "gas_prod": 518.0,
        "stim_volume": 7500.0,
        "stim_proppant": 0.0
    },
    {
        "api": "33-053-02148",
        "well_name": "Corps Of Engineers 31-10",
        "latitude": 48.094925,
        "longitude": -103.656644,
        "status": "Plugged and Abandoned",
        "well_type": "Oil & Gas",
        "closest_city": "Williston",
        "oil_prod": 64.0,
        "gas_prod": 0.0,
        "stim_volume": 7000.0,
        "stim_proppant": 0.0
    },
    {
        "api": "33-053-02556",
        "well_name": "Lewis And Clark 2-4H",
        "latitude": 48.104997,
        "longitude": -103.670242,
        "status": "Active",
        "well_type": "Oil & Gas",
        "closest_city": "Williston",
        "oil_prod": 537.0,
        "gas_prod": 537.0,
        "stim_volume": 12000.0,
        "stim_proppant": 0.0
    },
    {
        "api": "33-053-03413",
        "well_name": "Wade Federal 5300 21-30H",
        "latitude": 48.047147,
        "longitude": -103.6031,
        "status": "Active",
        "well_type": "Oil & Gas",
        "closest_city": "Williston",
        "oil_prod": 63.0,
        "gas_prod": 12.0,
        "stim_volume": 76768.0,
        "stim_proppant": 0.0
    },
    {
        "api": "33-053-05924",
        "well_name": "Chalmers 5301 44-24 2TR",
        "latitude": 48.055866,
        "longitude": -103.604903,
        "status": "Active",
        "well_type": "Oil & Gas",
        "closest_city": "Williston",
        "oil_prod": 275.0,
        "gas_prod": 0.0,
        "stim_volume": 74826.0,
        "stim_proppant": 0.0
    },
    {
        "api": "33-053-03608",
        "well_name": "Foley Federal 5301 43-12H",
        "latitude": 48.08269,
        "longitude": -103.611486,
        "status": "Active",
        "well_type": "Oil & Gas",
        "closest_city": "Williston",
        "oil_prod": 0.0,
        "gas_prod": 0.0,
        "stim_volume": 74475.0,
        "stim_proppant": 0.0
    },
    {
        "api": "33-105-04981",
        "well_name": "Jackman 34-11-3TFH",
        "latitude": 48.343789,
        "longitude": -103.50343,
        "status": "Active",
        "well_type": "Oil & Gas",
        "closest_city": "Springbrook",
        "oil_prod": 777.0,
        "gas_prod": 0.0,
        "stim_volume": 86805.0,
        "stim_proppant": 0.0
    },
    {
        "api": "33-053-03703",
        "well_name": "Dahl Federal 15-11H",
        "latitude": 48.082328,
        "longitude": -103.635729,
        "status": "Plugged and Abandoned",
        "well_type": "Oil & Gas",
        "closest_city": "Williston",
        "oil_prod": 0.0,
        "gas_prod": 0.0,
        "stim_volume": 1822380.0,
        "stim_proppant": 999800.0
    },
    {
        "api": "33-053-03846",
        "well_name": "Dahl Federal 2-15H",
        "latitude": 48.080324,
        "longitude": -103.655498,
        "status": "Active",
        "well_type": "Oil & Gas",
        "closest_city": "Williston",
        "oil_prod": 0.0,
        "gas_prod": 0.0,
        "stim_volume": 77312.0,
        "stim_proppant": 97400.0
    },
    {
        "api": "33-053-03943",
        "well_name": "Magnum 1-36-25H",
        "latitude": 48.025064,
        "longitude": -103.622135,
        "status": "Active",
        "well_type": "Oil & Gas",
        "closest_city": "Williston",
        "oil_prod": 0.0,
        "gas_prod": 0.0,
        "stim_volume": 0.0,
        "stim_proppant": 0.0
    },
    {
        "api": "33-053-03944",
        "well_name": "Magnum 2-36-25H",
        "latitude": 48.024944,
        "longitude": -103.605063,
        "status": "Active",
        "well_type": "Oil & Gas",
        "closest_city": "Williston",
        "oil_prod": 296.0,
        "gas_prod": 193.0,
        "stim_volume": 22133.0,
        "stim_proppant": 182669.0
    },
    {
        "api": "33-053-04069",
        "well_name": "Magnum 3-36-25H",
        "latitude": 48.024944,
        "longitude": -103.605166,
        "status": "Active",
        "well_type": "Oil & Gas",
        "closest_city": "Williston",
        "oil_prod": 0.0,
        "gas_prod": 0.0,
        "stim_volume": 40332.0,
        "stim_proppant": 3310858.0
    },
    {
        "api": "33-053-04211",
        "well_name": "Ash Federal 5300 11-18T",
        "latitude": 48.079672,
        "longitude": -103.602545,
        "status": "Active",
        "well_type": "Oil & Gas",
        "closest_city": "Williston",
        "oil_prod": 256.0,
        "gas_prod": 186.0,
        "stim_volume": 92216.0,
        "stim_proppant": 0.0
    },
    {
        "api": "33-105-02719",
        "well_name": "Atlanta 14-6H",
        "latitude": 48.109434,
        "longitude": -103.727494,
        "status": "Active",
        "well_type": "Oil & Gas",
        "closest_city": "Williston",
        "oil_prod": 592.0,
        "gas_prod": 872.0,
        "stim_volume": 51087.0,
        "stim_proppant": 819563.0
    },
    {
        "api": "33-105-02720",
        "well_name": "Atlanta 13-6H",
        "latitude": 48.109439,
        "longitude": -103.727678,
        "status": "Active",
        "well_type": "Oil & Gas",
        "closest_city": "Williston",
        "oil_prod": 608.0,
        "gas_prod": 884.0,
        "stim_volume": 47452.0,
        "stim_proppant": 862147.0
    },
    {
        "api": "33-105-02721",
        "well_name": "Atlanta 12-6H",
        "latitude": 48.109444,
        "longitude": -103.727862,
        "status": "Inactive",
        "well_type": "Oil & Gas",
        "closest_city": "Williston",
        "oil_prod": 0.0,
        "gas_prod": 0.0,
        "stim_volume": 53948.0,
        "stim_proppant": 127023.0
    },
    {
        "api": "33-105-02722",
        "well_name": "Atlanta 11-6H",
        "latitude": 48.10945,
        "longitude": -103.728047,
        "status": "Active",
        "well_type": "Oil & Gas",
        "closest_city": "Williston",
        "oil_prod": 565.0,
        "gas_prod": 843.0,
        "stim_volume": 0.0,
        "stim_proppant": 948104.0
    },
    {
        "api": "33-105-02723",
        "well_name": "Atlanta Federal 10-6H",
        "latitude": 48.109455,
        "longitude": -103.728231,
        "status": "Active",
        "well_type": "Oil & Gas",
        "closest_city": "Williston",
        "oil_prod": 387.0,
        "gas_prod": 666.0,
        "stim_volume": 58554.0,
        "stim_proppant": 139087.0
    },
    {
        "api": "33-105-02724",
        "well_name": "Atlanta Federal 9-6H",
        "latitude": 48.10946,
        "longitude": -103.728415,
        "status": "Inactive",
        "well_type": "Oil & Gas",
        "closest_city": "Williston",
        "oil_prod": 0.0,
        "gas_prod": 0.0,
        "stim_volume": 59949.0,
        "stim_proppant": 158561.0
    },
    {
        "api": "33-105-02725",
        "well_name": "Atlanta Federal 8-6H",
        "latitude": 48.109493,
        "longitude": -103.729603,
        "status": "Active",
        "well_type": "Oil & Gas",
        "closest_city": "Williston",
        "oil_prod": 229.0,
        "gas_prod": 493.0,
        "stim_volume": 72511.0,
        "stim_proppant": 986870.0
    },
    {
        "api": "33-105-02726",
        "well_name": "Atlanta Federal 7-6H",
        "latitude": 48.109499,
        "longitude": -103.729788,
        "status": "Active",
        "well_type": "Oil & Gas",
        "closest_city": "Williston",
        "oil_prod": 787.0,
        "gas_prod": 0.0,
        "stim_volume": 62806.0,
        "stim_proppant": 1351653.0
    },
    {
        "api": "33-105-02727",
        "well_name": "Atlanta Federal 6-6H",
        "latitude": 48.109504,
        "longitude": -103.729972,
        "status": "Active",
        "well_type": "Oil & Gas",
        "closest_city": "Williston",
        "oil_prod": 339.0,
        "gas_prod": 609.0,
        "stim_volume": 64611.0,
        "stim_proppant": 1068044.0
    },
    {
        "api": "33-105-02728",
        "well_name": "Atlanta Federal 5-6H",
        "latitude": 48.10951,
        "longitude": -103.730156,
        "status": "Active",
        "well_type": "Oil & Gas",
        "closest_city": "Williston",
        "oil_prod": 520.0,
        "gas_prod": 794.0,
        "stim_volume": 71324.0,
        "stim_proppant": 1128702.0
    },
    {
        "api": "33-105-02729",
        "well_name": "Atlanta 4-6H",
        "latitude": 48.109535,
        "longitude": -103.730975,
        "status": "Active",
        "well_type": "Oil & Gas",
        "closest_city": "Williston",
        "oil_prod": 173.0,
        "gas_prod": 449.0,
        "stim_volume": 51878.0,
        "stim_proppant": 2230502.0
    },
    {
        "api": "33-105-02730",
        "well_name": "Atlanta 3-6H",
        "latitude": 48.10954,
        "longitude": -103.73116,
        "status": "Active",
        "well_type": "Oil & Gas",
        "closest_city": "Williston",
        "oil_prod": 481.0,
        "gas_prod": 764.0,
        "stim_volume": 44335.0,
        "stim_proppant": 2251322.0
    },
    {
        "api": "33-105-02731",
        "well_name": "Atlanta 2-6H",
        "latitude": 48.109546,
        "longitude": -103.731344,
        "status": "Active",
        "well_type": "Oil & Gas",
        "closest_city": "Williston",
        "oil_prod": 84.0,
        "gas_prod": 351.0,
        "stim_volume": 45855.0,
        "stim_proppant": 2056996.0
    },
    {
        "api": "33-105-02732",
        "well_name": "Atlanta 1-6H",
        "latitude": 48.109552,
        "longitude": -103.731528,
        "status": "Active",
        "well_type": "Oil & Gas",
        "closest_city": "Williston",
        "oil_prod": 0.0,
        "gas_prod": 0.0,
        "stim_volume": 44056.0,
        "stim_proppant": 2138057.0
    },
    {
        "api": "33-053-04852",
        "well_name": "Columbus Federal 1-16H",
        "latitude": 48.074859,
        "longitude": -103.67017,
        "status": "Active",
        "well_type": "Oil & Gas",
        "closest_city": "Williston",
        "oil_prod": 0.0,
        "gas_prod": 0.0,
        "stim_volume": 48693.0,
        "stim_proppant": 156552.0
    },
    {
        "api": "33-053-04853",
        "well_name": "Tallahassee 3-16H",
        "latitude": 48.075131,
        "longitude": -103.669967,
        "status": "Active",
        "well_type": "Oil & Gas",
        "closest_city": "Williston",
        "oil_prod": 389.0,
        "gas_prod": 419.0,
        "stim_volume": 64952.0,
        "stim_proppant": 89291.0
    },
    {
        "api": "33-053-04854",
        "well_name": "Tallahassee 2-16H",
        "latitude": 48.075235,
        "longitude": -103.669874,
        "status": "Active",
        "well_type": "Oil & Gas",
        "closest_city": "Williston",
        "oil_prod": 277.0,
        "gas_prod": 0.0,
        "stim_volume": 56607.0,
        "stim_proppant": 2150603.0
    },
    {
        "api": "33-053-04855",
        "well_name": "Columbus Federal 2-16H",
        "latitude": 48.075342,
        "longitude": -103.66978,
        "status": "Active",
        "well_type": "Oil & Gas",
        "closest_city": "Williston",
        "oil_prod": 815.0,
        "gas_prod": 0.0,
        "stim_volume": 85599.0,
        "stim_proppant": 305478.0
    },
    {
        "api": "33-053-04856",
        "well_name": "Columbus Federal 3-16H",
        "latitude": 48.075449,
        "longitude": -103.669687,
        "status": "Active",
        "well_type": "Oil & Gas",
        "closest_city": "Williston",
        "oil_prod": 570.0,
        "gas_prod": 702.0,
        "stim_volume": 74589.0,
        "stim_proppant": 285982.0
    },
    {
        "api": "33-053-04981",
        "well_name": "Colville 5301 44-12T",
        "latitude": 48.082623,
        "longitude": -103.607895,
        "status": "Active",
        "well_type": "Oil & Gas",
        "closest_city": "Williston",
        "oil_prod": 714.0,
        "gas_prod": 0.0,
        "stim_volume": 95801.0,
        "stim_proppant": 0.0
    },
    {
        "api": "33-053-05845",
        "well_name": "Lewis Federal 5300 21-31 6B",
        "latitude": 48.031718,
        "longitude": -103.603085,
        "status": "Active",
        "well_type": "Oil & Gas",
        "closest_city": "Williston",
        "oil_prod": 967.0,
        "gas_prod": 0.0,
        "stim_volume": 311394.0,
        "stim_proppant": 0.0
    },
    {
        "api": "33-053-05849",
        "well_name": "Lewis Federal 5300 21-31 5B",
        "latitude": 48.031808,
        "longitude": -103.603086,
        "status": "Active",
        "well_type": "Oil & Gas",
        "closest_city": "Williston",
        "oil_prod": 0.0,
        "gas_prod": 211.0,
        "stim_volume": 0.0,
        "stim_proppant": 0.0
    },
    {
        "api": "33-053-05906",
        "well_name": "Wade Federal 5300 31-30 11T",
        "latitude": 48.044162,
        "longitude": -103.60267,
        "status": "Active",
        "well_type": "Oil & Gas",
        "closest_city": "Williston",
        "oil_prod": 243.0,
        "gas_prod": 0.0,
        "stim_volume": 123705.0,
        "stim_proppant": 0.0
    },
    {
        "api": "33-053-05943",
        "well_name": "Wade Federal 5300 41-30 4T",
        "latitude": 48.042266,
        "longitude": -103.603158,
        "status": "Active",
        "well_type": "Oil & Gas",
        "closest_city": "Williston",
        "oil_prod": 78.0,
        "gas_prod": 779.0,
        "stim_volume": 238848.0,
        "stim_proppant": 0.0
    },
    {
        "api": "33-053-05954",
        "well_name": "Wade Federal 5300 41-30 6B",
        "latitude": 48.041298,
        "longitude": -103.603014,
        "status": "Inactive",
        "well_type": "Oil & Gas",
        "closest_city": "Williston",
        "oil_prod": 0.0,
        "gas_prod": 0.0,
        "stim_volume": 188339.0,
        "stim_proppant": 0.0
    },
    {
        "api": "33-053-05995",
        "well_name": "Wade Federal 5300 31-30 2B",
        "latitude": 48.042447,
        "longitude": -103.603155,
        "status": "Active",
        "well_type": "Oil & Gas",
        "closest_city": "Williston",
        "oil_prod": 266.0,
        "gas_prod": 0.0,
        "stim_volume": 215747.0,
        "stim_proppant": 0.0
    },
    {
        "api": "33-053-05998",
        "well_name": "Wade Federal 5300 41-30 7T",
        "latitude": 48.041208,
        "longitude": -103.603016,
        "status": "Active",
        "well_type": "Oil & Gas",
        "closest_city": "Williston",
        "oil_prod": 317.0,
        "gas_prod": 0.0,
        "stim_volume": 134353.0,
        "stim_proppant": 0.0
    },
    {
        "api": "33-053-06012",
        "well_name": "Chalmers Wade Federal 5301 44-24 12TXR",
        "latitude": 48.055551,
        "longitude": -103.604905,
        "status": "Active",
        "well_type": "Oil & Gas",
        "closest_city": "Williston",
        "oil_prod": 540.0,
        "gas_prod": 0.0,
        "stim_volume": 95600.0,
        "stim_proppant": 0.0
    },
    {
        "api": "33-053-06018",
        "well_name": "Chalmers 5300 21-19 5T",
        "latitude": 48.061796,
        "longitude": -103.602522,
        "status": "Active",
        "well_type": "Oil & Gas",
        "closest_city": "Williston",
        "oil_prod": 396.0,
        "gas_prod": 0.0,
        "stim_volume": 206323.0,
        "stim_proppant": 0.0
    },
    {
        "api": "33-053-06019",
        "well_name": "Chalmers 5300 21-19 6B",
        "latitude": 48.061706,
        "longitude": -103.602522,
        "status": "Active",
        "well_type": "Oil & Gas",
        "closest_city": "Williston",
        "oil_prod": 292.0,
        "gas_prod": 553.0,
        "stim_volume": 223578.0,
        "stim_proppant": 0.0
    },
    {
        "api": "33-053-06021",
        "well_name": "Chalmers 5300 21-19 8T",
        "latitude": 48.061525,
        "longitude": -103.602523,
        "status": "Active",
        "well_type": "Oil & Gas",
        "closest_city": "Williston",
        "oil_prod": 227.0,
        "gas_prod": 0.0,
        "stim_volume": 96178.0,
        "stim_proppant": 0.0
    },
    {
        "api": "33-053-06022",
        "well_name": "Chalmers 5300 21-19 10T",
        "latitude": 48.061344,
        "longitude": -103.602525,
        "status": "Active",
        "well_type": "Oil & Gas",
        "closest_city": "Williston",
        "oil_prod": 248.0,
        "gas_prod": 0.0,
        "stim_volume": 214367.0,
        "stim_proppant": 0.0
    },
    {
        "api": "33-053-06023",
        "well_name": "Chalmers 5300 21-19 9B",
        "latitude": 48.061434,
        "longitude": -103.602524,
        "status": "Active",
        "well_type": "Oil & Gas",
        "closest_city": "Williston",
        "oil_prod": 321.0,
        "gas_prod": 0.0,
        "stim_volume": 215116.0,
        "stim_proppant": 0.0
    },
    {
        "api": "33-053-06024",
        "well_name": "Chalmers 5300 21-19 11B",
        "latitude": 48.061254,
        "longitude": -103.602525,
        "status": "Active",
        "well_type": "Oil & Gas",
        "closest_city": "Williston",
        "oil_prod": 135.0,
        "gas_prod": 770.0,
        "stim_volume": 209363.0,
        "stim_proppant": 0.0
    },
    {
        "api": "33-053-06025",
        "well_name": "Kline Federal 5300 41-18 9T",
        "latitude": 48.069087,
        "longitude": -103.602869,
        "status": "Active",
        "well_type": "Oil & Gas",
        "closest_city": "Williston",
        "oil_prod": 379.0,
        "gas_prod": 0.0,
        "stim_volume": 170347.0,
        "stim_proppant": 0.0
    },
    {
        "api": "33-053-06026",
        "well_name": "Kline Federal 5300 41-18 10B",
        "latitude": 48.068997,
        "longitude": -103.602868,
        "status": "Active",
        "well_type": "Oil & Gas",
        "closest_city": "Williston",
        "oil_prod": 80.0,
        "gas_prod": 152.0,
        "stim_volume": 192526.0,
        "stim_proppant": 0.0
    },
    {
        "api": "33-053-06028",
        "well_name": "Kline Federal 5300 41-18 13T2X",
        "latitude": 48.068726,
        "longitude": -103.602865,
        "status": "Plugged and Abandoned",
        "well_type": "Oil & Gas",
        "closest_city": "Williston",
        "oil_prod": 0.0,
        "gas_prod": 0.0,
        "stim_volume": 126978.0,
        "stim_proppant": 0.0
    },
    {
        "api": "33-053-06029",
        "well_name": "Kline Federal 5300 41-18 14BX",
        "latitude": 48.068635,
        "longitude": -103.602863,
        "status": "Active",
        "well_type": "Oil & Gas",
        "closest_city": "Williston",
        "oil_prod": 872.0,
        "gas_prod": 0.0,
        "stim_volume": 214895.0,
        "stim_proppant": 0.0
    },
    {
        "api": "33-053-06030",
        "well_name": "Kline Federal 5300 41-18 12TX",
        "latitude": 48.068816,
        "longitude": -103.602866,
        "status": "Active",
        "well_type": "Oil & Gas",
        "closest_city": "Williston",
        "oil_prod": 153.0,
        "gas_prod": 0.0,
        "stim_volume": 186133.0,
        "stim_proppant": 0.0
    },
    {
        "api": "33-053-06051",
        "well_name": "Wade Federal 5300 41-30 9B",
        "latitude": 48.041027,
        "longitude": -103.60302,
        "status": "Active",
        "well_type": "Oil & Gas",
        "closest_city": "Williston",
        "oil_prod": 305.0,
        "gas_prod": 0.0,
        "stim_volume": 171968.0,
        "stim_proppant": 0.0
    },
    {
        "api": "33-053-00605",
        "well_name": "Wrrmu 4-28",
        "latitude": 47.346236,
        "longitude": -103.55443,
        "status": "Plugged and Abandoned",
        "well_type": "Oil & Gas",
        "closest_city": "Medora",
        "oil_prod": 0.0,
        "gas_prod": 0.0,
        "stim_volume": 19114.0,
        "stim_proppant": 0.0
    },
    {
        "api": "33-053-06056",
        "well_name": "Kline Federal 5300 31-18 7T",
        "latitude": 48.074452,
        "longitude": -103.602935,
        "status": "Active",
        "well_type": "Oil & Gas",
        "closest_city": "Williston",
        "oil_prod": 285.0,
        "gas_prod": 0.0,
        "stim_volume": 10330.0,
        "stim_proppant": 0.0
    },
    {
        "api": "33-053-06057",
        "well_name": "Kline Federal 5300 31-18 6B",
        "latitude": 48.074362,
        "longitude": -103.602934,
        "status": "Abandoned",
        "well_type": "Oil & Gas",
        "closest_city": "Williston",
        "oil_prod": 0.0,
        "gas_prod": 0.0,
        "stim_volume": 220489.0,
        "stim_proppant": 0.0
    },
    {
        "api": "33-053-06129",
        "well_name": "Wade Federal 5300 21-30 12T",
        "latitude": 48.048736,
        "longitude": -103.602904,
        "status": "Active",
        "well_type": "Oil & Gas",
        "closest_city": "Williston",
        "oil_prod": 501.0,
        "gas_prod": 0.0,
        "stim_volume": 190732.0,
        "stim_proppant": 0.0
    },
    {
        "api": "33-053-06131",
        "well_name": "Wade Federal 5300 21-30 13B",
        "latitude": 48.048917,
        "longitude": -103.6029,
        "status": "Active",
        "well_type": "Oil & Gas",
        "closest_city": "Williston",
        "oil_prod": 50.0,
        "gas_prod": 245.0,
        "stim_volume": 0.0,
        "stim_proppant": 0.0
    },
    {
        "api": "33-053-06223",
        "well_name": "Kline Federal 5300 11-18 5B",
        "latitude": 48.078987,
        "longitude": -103.602835,
        "status": "Active",
        "well_type": "Oil & Gas",
        "closest_city": "Williston",
        "oil_prod": 318.0,
        "gas_prod": 0.0,
        "stim_volume": 209044.0,
        "stim_proppant": 0.0
    },
    {
        "api": "33-053-06225",
        "well_name": "Kline Federal 5300 11-18 3T",
        "latitude": 48.079069,
        "longitude": -103.602783,
        "status": "Active",
        "well_type": "Oil & Gas",
        "closest_city": "Williston",
        "oil_prod": 158.0,
        "gas_prod": 743.0,
        "stim_volume": 208220.0,
        "stim_proppant": 0.0
    },
    {
        "api": "33-053-06231",
        "well_name": "Gramma Federal 5300 41-31 12B",
        "latitude": 48.026154,
        "longitude": -103.602783,
        "status": "Active",
        "well_type": "Oil & Gas",
        "closest_city": "Williston",
        "oil_prod": 723.0,
        "gas_prod": 0.0,
        "stim_volume": 168692.0,
        "stim_proppant": 0.0
    },
    {
        "api": "33-053-06232",
        "well_name": "Gramma Federal 5300 41-31 13T",
        "latitude": 48.026335,
        "longitude": -103.602785,
        "status": "Active",
        "well_type": "Oil & Gas",
        "closest_city": "Williston",
        "oil_prod": 357.0,
        "gas_prod": 0.0,
        "stim_volume": 170334.0,
        "stim_proppant": 0.0
    },
    {
        "api": "33-053-06243",
        "well_name": "Kline Federal 5300 11-18 2B",
        "latitude": 48.079234,
        "longitude": -103.60267,
        "status": "Active",
        "well_type": "Oil & Gas",
        "closest_city": "Williston",
        "oil_prod": 206.0,
        "gas_prod": 0.0,
        "stim_volume": 209640.0,
        "stim_proppant": 0.0
    },
    {
        "api": "33-053-06548",
        "well_name": "Lewis Federal 5300 11-31 3B",
        "latitude": 48.035835,
        "longitude": -103.603111,
        "status": "Active",
        "well_type": "Oil & Gas",
        "closest_city": "Williston",
        "oil_prod": 0.0,
        "gas_prod": 0.0,
        "stim_volume": 329963.0,
        "stim_proppant": 0.0
    },
    {
        "api": "33-053-06549",
        "well_name": "Lewis Federal 5300 11-31 2B",
        "latitude": 48.035926,
        "longitude": -103.6031,
        "status": "Active",
        "well_type": "Oil & Gas",
        "closest_city": "Williston",
        "oil_prod": 711.0,
        "gas_prod": 0.0,
        "stim_volume": 305814.0,
        "stim_proppant": 0.0
    },
    {
        "api": "33-053-06755",
        "well_name": "Kline Federal 5300 31-18 15T",
        "latitude": 48.074633,
        "longitude": -103.602938,
        "status": "Active",
        "well_type": "Oil & Gas",
        "closest_city": "Williston",
        "oil_prod": 489.0,
        "gas_prod": 0.0,
        "stim_volume": 13837.0,
        "stim_proppant": 0.0
    },
    {
        "api": "33-053-08946",
        "well_name": "Lewis Federal 5300 11-31 4BR",
        "latitude": 48.035654,
        "longitude": -103.60313,
        "status": "Active",
        "well_type": "Oil & Gas",
        "closest_city": "Williston",
        "oil_prod": 511.0,
        "gas_prod": 0.0,
        "stim_volume": 0.0,
        "stim_proppant": 0.0
    },
    {
        "api": "33-053-90244",
        "well_name": "Buck Shot SWD 5300 31-31",
        "latitude": 48.0291,
        "longitude": -103.599403,
        "status": "Active",
        "well_type": "Salt Water Disposal",
        "closest_city": "Williston",
        "oil_prod": 0.0,
        "gas_prod": 0.0,
        "stim_volume": 9000.0,
        "stim_proppant": 0.0
    },
    {
        "api": "33-105-07848",
        "well_name": "Pending Web Scrape",
        "latitude": 0.0,
        "longitude": 0.0,
        "status": "N/A",
        "well_type": "N/A",
        "closest_city": "N/A",
        "oil_prod": 0.0,
        "gas_prod": 0.0,
        "stim_volume": 6000.0,
        "stim_proppant": 0.0
    },
    {
        "api": "33-053-90329",
        "well_name": "Carson SWD 5301 12-24",
        "latitude": 48.066082,
        "longitude": -103.615308,
        "status": "Active",
        "well_type": "Salt Water Disposal",
        "closest_city": "Williston",
        "oil_prod": 0.0,
        "gas_prod": 0.0,
        "stim_volume": 402.0,
        "stim_proppant": 0.0
    }
]